{
  "McDonalds": {
    "name": "McDonalds",
    "restaurantType": "Brza hrana",
    "articles": [
    	{
    		"name": "Hamburger",
    		"price": 150,
    		"articleType": "FOOD",
    		"restaurantID": "McDonalds",
    		"amount": 100,
    		"description": "hamburger",
    		"image": "/images/McDonaldsArticles/hamburger.png"
    	},
    	{
    		"name": "Cheeseburger",
    		"price": 180,
    		"articleType": "FOOD",
    		"restaurantID": "McDonalds",
    		"amount": 120,
    		"description": "cizzzz",
    		"image": "/images/McDonaldsArticles/cheeseburger.png"
    	},
    	{
    		"name": "Pomfrit",
    		"price": 160,
    		"articleType": "FOOD",
    		"restaurantID": "McDonalds",
    		"amount": 120,
    		"description": "pomfrit mali",
    		"image": "/images/McDonaldsArticles/Pomfrit.jpg"
    	},
    	{
    		"name": "Chicken nuggets",
    		"price": 400,
    		"articleType": "FOOD",
    		"restaurantID": "McDonalds",
    		"amount": 100,
    		"description": "10 nuggetsa",
    		"image": "images/McDonaldsArticles/chicken-mcnuggets.png"
    	},
    	{
    		"name": "Sladoled",
    		"price": 150,
    		"articleType": "FOOD",
    		"restaurantID": "McDonalds",
    		"amount": 100,
    		"description": "sladoled u casi",
    		"image": "/images/McDonaldsArticles/ice-cream.png"
    	}
    ],
    "status": "Otvoren",
    "location": {
      "longitude": 28.0,
      "latitude": 30.0,
      "address": {
        "street": "Zmaj Jovina",
        "number": "2",
        "city": "Novi Sad",
        "postalCode": "21000",
        "country": "Serbia"
      }
    },
    "logo": "images/mcLogo.png",
    "deleted": 0
  },
  "qq": {
    "name": "qq",
    "restaurantType": "Brza hrana",
    "articles": [],
    "status": "Otvoren",
    "location": {
      "longitude": 28.0,
      "latitude": 30.0,
      "address": {
        "street": "Zmaj Jovina",
        "number": "2",
        "city": "Novi Sad",
        "postalCode": "21000",
        "country": "Serbia"
      }
    },
    "logo": "/images/mcLogo.png",
    "deleted": 0
  },
  "qrt": {
    "name": "qrt",
    "restaurantType": "Brza hrana",
    "articles": [],
    "status": "Otvoren",
    "location": {
      "longitude": 28.0,
      "latitude": 30.0,
      "address": {
        "street": "Zmaj Jovina",
        "number": "2",
        "city": "Novi Sad",
        "postalCode": "21000",
        "country": "Serbia"
      }
    },
    "logo": "/images/mcLogo.png",
    "deleted": 0
  },
  "asd": {
    "name": "asd",
    "restaurantType": "Brza hrana",
    "articles": [],
    "status": "Otvoren",
    "location": {
      "longitude": 28.0,
      "latitude": 30.0,
      "address": {
        "street": "Zmaj Jovina",
        "number": "2",
        "city": "Novi Sad",
        "postalCode": "21000",
        "country": "Serbia"
      }
    },
    "logo": "/images/mcLogo.png",
    "deleted": 0
  },
  "daa": {
    "name": "daa",
    "restaurantType": "Brza hrana",
    "articles": [],
    "status": "Otvoren",
    "location": {
      "longitude": 28.0,
      "latitude": 30.0,
      "address": {
        "street": "Zmaj Jovina",
        "number": "2",
        "city": "Novi Sad",
        "postalCode": "21000",
        "country": "Serbia"
      }
    },
    "logo": "/images/mcLogo.png",
    "deleted": 0
  },
  "das": {
    "name": "das",
    "restaurantType": "Brza hrana",
    "articles": [],
    "status": "Otvoren",
    "location": {
      "longitude": 28.0,
      "latitude": 30.0,
      "address": {
        "street": "Zmaj Jovina",
        "number": "2",
        "city": "Novi Sad",
        "postalCode": "21000",
        "country": "Serbia"
      }
    },
    "logo": "/images/mcLogo.png",
    "deleted": 0
  },
  "zxcv": {
    "name": "zxcv",
    "restaurantType": "Brza hrana",
    "articles": [],
    "status": "Otvoren",
    "location": {
      "longitude": 28.0,
      "latitude": 30.0,
      "address": {
        "street": "Zmaj Jovina",
        "number": "2",
        "city": "Novi Sad",
        "postalCode": "21000",
        "country": "Serbia"
      }
    },
    "logo": "/images/mcLogo.png",
    "deleted": 0
  },
  "qer": {
    "name": "qer",
    "restaurantType": "Brza hrana",
    "articles": [],
    "status": "Otvoren",
    "location": {
      "longitude": 28.0,
      "latitude": 30.0,
      "address": {
        "street": "Zmaj Jovina",
        "number": "2",
        "city": "Novi Sad",
        "postalCode": "21000",
        "country": "Serbia"
      }
    },
    "logo": "/images/mcLogo.png",
    "deleted": 0
  }
}